[
  {
    "id": "e0d9a9f6-e65f-4dfa-ad5f-83e394cc1bca",
    "name": "Aaron",
    "city": "Dryden",
    "lat": "49.757855",
    "lng": "-92.653273"
  },
  {
    "id": "7fa3c535-b3d9-453f-bee7-96f77f9661f3",
    "name": "Arrowhead",
    "city": "Huntsville",
    "lat": "45.391532",
    "lng": "-79.214686"
  },
  {
    "id": "908cb1e4-176c-415a-bd09-1dd2a70083a8",
    "name": "Restoule",
    "city": "Restoule",
    "lat": "46.073248",
    "lng": "-79.783105"
  },
  {
    "id": "5ac78553-299d-419e-81dd-efa6a7f31999",
    "name": "Bon Echo",
    "city": "Cloyne",
    "lat": "44.897494",
    "lng": "-77.208626"
  },
  {
    "id": "60a14b02-6683-4978-8626-eea213249048",
    "name": "Bronte Creek",
    "city": "Oakville",
    "lat": "43.406319",
    "lng": "-79.771360"
  },
  {
    "id": "aba2a868-052b-4ba0-be8b-e77afd8aaed8",
    "name": "Earl Rowe",
    "city": "Tosorontio",
    "lat": "44.150060",
    "lng": "-79.896254"
  },
  {
    "id": "84016edd-6577-4996-9e50-bcaf2ae5145e",
    "name": "Presqu'ile",
    "city": "Brighton",
    "lat": "44.009640",
    "lng": "-77.742019"
  },
  {
    "id": "6d538518-8a67-49f0-8cbb-85dacd258abb",
    "name": "Bonnechere",
    "city": "Killaloe",
    "lat": "45.662765",
    "lng": "-77.570878"
  },
  {
    "id": "e9f948c1-8b07-491c-a4d7-549e8df50c35",
    "name": "Turkey Point",
    "city": "Turkey Point",
    "lat": "42.704410",
    "lng": "-80.335452"
  },
  {
    "id": "37fc1c93-7c40-497c-8e25-8b0170b647f3",
    "name": "Algonquin",
    "city": "Whitney",
    "lat": "45.835620",
    "lng": "-78.379070"
  },
  {
    "id": "25092cc2-bd85-4bce-8151-5cd642e28d44",
    "name": "Grundy Lake",
    "city": "Britt",
    "lat": "45.927413",
    "lng": "-80.554799"
  },
  {
    "id": "1a2bbbca-c4ac-4792-9bd1-234786909889",
    "name": "Sauble Falls",
    "city": "South Bruce",
    "lat": "44.674010",
    "lng": "-81.256814"
  },
  {
    "id": "df02d24f-d9b2-4ee7-bac6-fd2a52e53f3b",
    "name": "Caliper Lake",
    "city": "Kenora",
    "lat": "49.063308",
    "lng": "-93.913698"
  }
]
